,City,Cloudiness,Humidity,Lat,Lng,Max Temp,Wind Speed
0,Vaini,75,88,-21.2,-175.2,71.6,3.36
1,Vaini,75,88,-21.2,-175.2,71.6,3.36
2,Rikitea,21,83,-23.12,-134.97,74.01,12.17
3,Hermanus,19,58,-34.42,19.23,57.0,1.99
4,Shakhtinsk,75,75,49.71,72.59,41.0,6.71
5,Cape Town,20,58,-33.93,18.42,60.01,6.93
6,Albany,66,67,42.6,-73.97,75.0,9.8
7,Jamestown,1,68,42.1,-79.24,73.0,14.99
8,Dvinskoy,86,86,62.15,45.12,52.61,3.83
9,Yashkul',20,42,46.17,45.34,61.65,17.49
10,Geraldton,75,81,-28.77,114.6,53.6,5.82
11,Opuwo,0,12,-18.06,13.84,85.8,17.72
12,Témiscaming,90,77,46.72,-79.1,66.2,16.11
13,Ushuaia,90,70,-54.8,-68.3,42.8,14.99
14,Mahébourg,75,83,-20.41,57.7,71.6,12.75
15,Faya,36,13,18.39,42.45,77.0,8.05
16,Shimoda,0,91,34.67,138.95,61.0,4.21
17,Punta Arenas,90,65,-53.15,-70.92,44.6,11.41
18,Angola,61,20,-12.5,18.5,87.53,2.71
19,Atuona,5,74,-9.8,-139.03,77.76,15.95
20,Adavere,0,74,58.71,25.9,64.0,7.34
21,Codrington,0,85,-38.27,141.97,37.54,6.13
22,Carnarvon,0,64,-24.87,113.63,68.0,17.22
23,Cayenne,75,49,4.93,-52.33,91.4,8.05
24,Ixtapa,5,74,20.7,-105.2,86.0,1.52
25,Harper,31,79,4.38,-7.72,79.9,10.47
26,Busselton,100,81,-33.65,115.33,55.99,8.46
27,Kaitangata,63,76,-46.28,169.85,36.0,8.99
28,Tocopilla,17,52,-22.09,-70.2,65.88,10.02
29,Butaritari,83,79,3.07,172.79,81.95,13.24
30,Bluff,93,94,-46.6,168.33,34.0,11.01
31,Maceió,75,65,-9.67,-35.74,82.4,9.17
32,Eureka,0,97,40.8,-124.16,59.0,1.01
33,Avarua,86,73,-21.21,-159.78,71.6,6.93
34,Mulchén,0,62,-37.72,-72.23,57.2,11.41
35,Vila Velha,0,41,-20.33,-40.29,91.4,14.99
36,Ponta do Sol,40,73,32.67,-17.1,72.0,9.17
37,Nome,40,74,64.5,-165.41,35.01,13.87
38,Lebu,0,71,-37.62,-73.65,53.98,10.42
39,São Filipe,45,81,14.9,-24.5,80.98,8.23
40,Saskylakh,94,88,71.92,114.08,37.62,9.69
41,Bytów,90,72,54.17,17.49,66.99,9.17
42,Tasiilaq,89,80,65.61,-37.64,41.0,5.82
43,Cidreira,100,87,-30.18,-50.21,68.88,5.48
44,Santa Cruz de la Sierra,75,58,-17.8,-63.17,87.8,23.04
45,Norman Wells,20,87,65.28,-126.83,42.8,3.36
46,Hong Kong,100,83,22.29,114.16,82.0,18.68
47,Mataura,97,94,-46.19,168.86,34.0,11.01
48,Eisenberg,99,77,50.97,11.9,55.0,4.07
49,Snyder,1,44,32.72,-100.92,80.6,10.29
50,Fomboni,2,78,-12.28,43.74,78.03,17.58
51,Barrow,90,92,71.29,-156.79,30.2,9.17
52,Port Alfred,0,61,-33.59,26.89,57.92,14.36
53,Barsovo,94,87,61.17,73.17,55.4,11.18
54,Torbay,75,64,47.67,-52.73,69.01,23.04
55,Cap Malheureux,10,73,-19.98,57.61,73.99,8.99
56,Yellowknife,90,93,62.46,-114.35,43.0,8.05
57,Provideniya,89,92,64.38,-173.3,31.87,8.97
58,Qaanaaq,0,78,77.48,-69.36,13.82,6.71
59,Tuktoyaktuk,90,100,69.45,-133.04,35.6,9.17
60,Semey,91,58,50.41,80.23,47.88,10.56
61,Roald,0,71,62.58,6.13,57.2,3.36
62,Chifeng,1,64,42.27,118.96,59.67,7.74
63,Natal,20,55,-5.79,-35.21,87.8,20.8
64,Nouadhibou,0,65,20.93,-17.03,80.6,21.92
65,Port Blair,99,79,11.67,92.75,82.49,10.29
66,Dakar,75,66,14.69,-17.44,89.6,4.7
67,Hilo,1,73,19.73,-155.09,69.8,6.93
68,Bambous Virieux,75,83,-20.34,57.76,73.99,12.75
69,Uitenhage,20,62,-33.76,25.4,57.0,14.99
70,Chui,100,92,-33.7,-53.46,66.52,5.3
71,São João da Barra,7,36,-21.64,-41.05,91.4,6.93
72,West Bay,20,66,19.37,-81.42,89.6,8.05
73,Talisayan,75,88,6.99,121.93,78.8,2.24
74,Katsuura,75,94,35.13,140.3,68.0,3.36
75,Nikolskoye,0,67,59.7,30.79,64.99,6.71
76,Yangi Marg`ilon,100,48,40.43,71.72,66.2,6.93
77,Tuatapere,80,94,-46.13,167.68,34.0,11.01
78,Port Elizabeth,20,62,-33.92,25.57,55.4,14.99
79,Sonqor,14,11,34.78,47.6,80.6,11.41
80,Nanortalik,0,72,60.14,-45.24,39.15,12.15
81,Souillac,75,83,-20.52,57.52,71.6,12.75
82,Kapaa,40,78,22.08,-159.32,78.8,9.17
83,Adamovka,0,49,51.52,59.94,51.37,3.13
84,Hithadhoo,54,66,-0.6,73.08,83.12,3.11
85,Vao,99,88,-22.67,167.48,71.98,12.08
86,San Quintín,0,74,30.48,-115.95,69.62,3.09
87,Hasaki,75,100,35.73,140.83,63.0,2.24
88,Klaksvík,100,87,62.23,-6.59,46.4,17.22
89,Mandalgovi,21,53,45.76,106.27,44.24,8.79
90,Bethel,90,73,41.37,-73.41,73.4,5.82
91,Westport,90,78,41.14,-73.36,75.0,3.36
92,Khuzhir,29,69,53.19,107.34,44.58,11.41
93,Killybegs,75,82,54.63,-8.45,59.0,8.05
94,Adrar,0,11,20.5,-10.07,102.49,11.27
95,Mananjary,68,84,-21.22,48.33,71.56,9.69
96,Chokurdakh,100,72,70.63,147.92,40.08,3.94
97,Oakdale,1,58,44.96,-92.96,60.01,9.17
98,Portland,90,100,45.52,-122.68,57.99,3.36
99,Hobart,40,65,-42.88,147.33,46.99,8.05
100,Cacheu,75,66,12.27,-16.17,91.4,4.7
101,Jaffna,98,82,9.67,80.01,81.88,18.23
102,Östersund,100,100,63.18,14.64,42.8,5.82
103,Abu Dhabi,0,79,24.47,54.37,89.6,8.05
104,Périgueux,100,86,45.18,0.72,53.01,9.24
105,Muros,61,60,42.78,-9.06,66.99,5.01
106,San Vicente,100,32,-26.62,-54.13,90.25,9.51
107,Yanam,75,83,16.73,82.22,82.4,5.82
108,Creston,90,100,41.06,-94.36,53.6,11.48
109,Korla,98,85,41.76,86.15,68.0,10.2
110,Salalah,40,83,17.02,54.09,78.8,6.93
111,Rawson,0,36,-43.3,-65.1,58.6,10.76
112,Dunhua,0,87,43.37,128.24,50.83,4.07
113,Lüderitz,0,56,-26.65,15.16,59.34,26.44
114,Topolog,0,39,44.88,28.37,66.2,9.17
115,Mar del Plata,90,100,-38.0,-57.56,54.0,16.11
116,Mahrīz,20,15,31.59,54.43,82.4,4.7
117,Vuktyl,100,89,63.86,57.31,53.76,5.59
118,Winnemucca,1,43,40.97,-117.74,55.4,18.34
119,Zhezkazgan,0,52,47.8,67.71,44.6,13.42
120,Corn Island,62,76,12.17,-83.04,83.86,9.91
121,Poum,71,83,-20.23,164.02,75.04,12.24
122,Ilulissat,91,64,69.22,-51.1,33.8,9.17
123,Saint-Philippe,89,68,-21.36,55.77,69.8,9.17
124,Puerto Ayora,99,83,-0.74,-90.35,70.0,8.01
125,Petrykiv,100,70,49.53,25.58,55.99,4.0
126,Severo-Kuril'sk,100,84,50.68,156.12,47.88,19.77
127,Ulladulla,40,87,-35.35,150.47,46.0,5.82
128,Kyshtovka,72,88,56.55,76.63,43.7,5.35
129,Cabo San Lucas,5,74,22.89,-109.91,87.01,4.7
130,Healesville,0,99,-37.65,145.52,39.99,1.68
131,Kahului,20,69,20.89,-156.47,73.4,6.93
132,Srednekolymsk,100,63,67.45,153.68,42.48,9.01
133,Sheregesh,12,90,52.92,87.99,34.97,3.22
134,Panacan,20,88,9.25,118.41,80.6,4.7
135,Talnakh,75,93,69.49,88.4,37.4,6.71
136,Morondava,50,77,-20.28,44.28,77.16,11.72
137,Tazovsky,100,85,67.47,78.7,43.2,23.15
138,Aquiraz,20,51,-3.9,-38.39,86.0,18.34
139,Vardø,0,69,70.37,31.11,37.4,8.05
140,Yar-Sale,48,73,66.83,70.83,41.58,18.07
141,Naze,73,73,28.37,129.48,77.0,6.93
142,Bonthe,89,75,7.53,-12.51,81.09,11.16
143,Choya,64,85,52.01,86.55,38.7,0.36
144,Sittwe,51,86,20.15,92.9,81.81,6.76
145,Amparafaravola,89,84,-17.58,48.22,65.95,7.07
146,Mossamedes,30,77,-15.2,12.15,66.56,7.18
147,Tupik,86,88,54.43,119.93,36.0,3.56
148,Pitimbu,20,58,-7.47,-34.81,86.0,14.99
149,Arraial do Cabo,100,52,-22.97,-42.03,93.2,12.75
150,Boralday,75,46,43.36,76.86,50.0,6.71
151,Lavrentiya,86,93,65.58,-171.0,32.7,10.98
152,Great Falls,75,45,47.5,-111.3,50.0,10.29
153,Borogontsy,100,79,62.67,131.17,51.55,9.01
154,Kandé,75,78,9.96,1.04,78.8,3.36
155,Dillon,90,78,34.42,-79.37,77.0,3.36
156,Brae,75,87,60.4,-1.35,50.0,2.24
157,Ilmajoki,43,82,62.73,22.57,62.6,1.12
158,Bījār,13,37,35.87,47.61,59.49,7.2
159,Verkhnevilyuysk,100,80,63.45,120.32,42.22,4.5
160,Clyde River,90,92,70.47,-68.59,28.4,9.17
161,Matveyevka,0,61,52.15,56.18,50.0,4.47
162,La Ronge,75,70,55.1,-105.28,46.4,12.75
163,Māngrol,0,75,21.12,70.12,80.55,7.43
164,Esperance,92,100,-33.87,121.9,53.6,10.29
165,Thompson,90,87,55.74,-97.86,42.8,11.41
166,Lumding,57,97,25.75,93.17,75.78,2.24
167,Gandu,40,32,-13.74,-39.49,90.36,4.9
168,Arrondissement du Havre,90,93,49.58,0.33,54.0,17.22
169,Ruteng,26,100,-8.61,120.47,62.28,1.77
170,Santa Maria,75,83,-29.68,-53.81,71.6,9.17
171,Bathsheba,20,78,13.22,-59.52,82.4,11.41
172,Castro,71,36,-24.79,-50.01,85.06,10.54
173,Pangnirtung,20,74,66.15,-65.71,33.8,5.82
174,Sitka,90,71,57.05,-135.33,51.8,28.86
175,Khatanga,84,91,71.97,102.5,32.74,15.59
176,Amapá,30,37,1.0,-52.0,95.36,5.17
177,Dumka,39,90,24.27,87.25,79.09,4.52
178,Ellensburg,1,66,47.0,-120.55,55.4,11.41
179,Kavieng,63,79,-2.57,150.8,82.17,10.04
180,Upernavik,80,92,72.79,-56.15,28.67,8.97
181,Piaçabuçu,13,69,-10.41,-36.43,81.84,10.22
182,Lukovetskiy,90,93,64.3,41.92,51.8,8.95
183,Magdalena,40,83,14.2,121.43,82.4,3.36
184,Esim,32,79,4.87,-2.24,79.3,12.82
185,East London,40,67,-33.02,27.91,57.2,12.75
186,Barpeta,75,100,26.32,91.0,82.4,5.1
187,Zhigansk,96,86,66.77,123.37,41.58,5.26
188,Bredasdorp,50,51,-34.53,20.04,59.0,11.41
189,Waycross,40,83,31.21,-82.35,78.01,5.82
190,Coquimbo,0,67,-29.95,-71.34,59.0,11.41
191,Capinópolis,0,18,-18.68,-49.57,98.4,8.21
192,Mitsamiouli,20,65,-11.38,43.28,80.6,20.8
193,Hoi An,75,88,15.88,108.33,80.6,6.93
194,Aripuanã,94,34,-9.17,-60.63,96.8,4.52
195,Saint Paul Harbor,90,87,57.79,-152.41,48.2,27.51
196,Susner,1,80,23.95,76.08,75.34,7.49
197,San Patricio,5,74,19.22,-104.7,86.0,2.33
198,Coahuayana Viejo,40,83,18.73,-103.68,77.0,1.66
199,Dvorichna,82,28,49.85,37.69,68.74,16.8
200,Caravelas,0,54,-17.71,-39.25,82.54,10.07
201,Timbiquí,47,69,2.77,-77.67,84.0,3.76
202,Husavik,90,93,66.04,-17.34,44.6,5.82
203,Mogadishu,53,81,2.04,45.34,78.1,12.59
204,Boguchany,68,91,58.38,97.45,39.85,5.73
205,Dikson,100,79,73.51,80.55,36.72,24.09
206,Bilma,100,10,18.69,12.92,101.21,10.47
207,Laas,5,65,46.62,10.7,50.0,5.82
208,Ancud,68,70,-41.87,-73.82,57.99,1.01
209,Nizwá,2,14,22.93,57.53,90.39,2.51
210,Palana,2,84,59.12,159.97,37.17,14.41
211,Wuwei,100,67,37.93,102.64,61.74,13.24
212,Ribeira Grande,20,78,38.52,-28.7,75.2,5.82
213,Kjøllefjord,0,74,70.95,27.35,37.4,6.93
214,Mikepércs,1,54,47.45,21.63,59.0,5.82
215,Gijang,20,72,35.24,129.21,62.6,3.36
216,Nsanje,45,16,-16.92,35.26,94.87,4.0
217,Boa Vista,40,55,2.82,-60.67,87.8,4.7
218,Palmer,90,73,42.16,-72.33,75.99,6.93
219,Meulaboh,100,81,4.14,96.13,78.64,4.07
220,Puerto Varas,75,76,-41.32,-72.99,51.8,3.36
221,Kunashak,0,81,55.7,61.55,44.6,8.95
222,Boa Viagem,0,26,-5.13,-39.73,96.84,8.75
223,Djibo,26,27,14.1,-1.63,97.34,5.99
224,Province of Trapani,20,68,37.83,12.67,69.8,20.8
225,Rognan,20,53,67.1,15.39,52.0,21.92
226,Iqaluit,75,92,63.75,-68.51,32.0,5.82
227,Mogadouro,3,39,41.34,-6.71,72.0,1.99
228,Mussomeli,74,86,37.58,13.75,64.99,7.0
229,Palamós,98,37,41.85,3.13,61.0,13.56
230,Mount Gambier,0,93,-37.83,140.77,37.4,4.88
231,Along,100,89,28.17,94.77,71.82,1.28
232,Lakatoro,75,94,-16.1,167.42,73.4,7.83
233,Prainha,63,43,-1.8,-53.48,92.43,4.72
234,Vostok,0,85,46.49,135.88,40.06,3.42
235,Yertsevo,0,92,60.8,40.09,53.08,4.85
236,Doha,0,63,25.29,51.53,93.2,4.7
237,Petropavlovsk-Kamchatskiy,75,79,53.05,158.65,35.6,6.71
238,Marevo,13,56,57.31,32.08,58.57,11.99
239,Chumikan,100,93,54.72,135.31,50.77,13.49
240,Yagodnoye,0,88,62.55,149.67,33.1,5.48
241,Jiangyou,100,90,31.77,104.72,62.19,2.57
242,Egvekinot,0,91,66.32,-179.17,27.5,5.99
243,Alofi,97,88,-19.06,-169.92,73.4,12.75
244,Swellendam,91,51,-34.02,20.44,59.0,11.41
245,Prieska,0,23,-29.66,22.75,62.08,14.61
246,Hay River,75,100,60.82,-115.8,46.4,3.36
247,Bukachacha,56,79,52.98,116.92,37.45,4.21
248,Puerto del Rosario,40,54,28.5,-13.86,80.6,27.51
249,Krasnyye Chetai,99,67,55.69,46.14,51.82,7.25
250,Kermanshah,1,11,34.31,47.06,80.6,11.41
251,Roebourne,0,46,-20.78,117.13,70.27,12.1
252,Ginda,0,60,30.69,78.49,59.18,4.54
253,Xining,100,62,36.62,101.77,58.77,5.44
254,São Gabriel da Cachoeira,20,70,-0.13,-67.09,86.0,3.36
255,Sola,12,81,-13.88,167.55,79.61,17.76
256,Äänekoski,14,93,62.69,25.82,60.01,2.24
257,Rotifunk,99,87,8.23,-12.68,78.28,5.19
258,Cairns,40,78,-16.92,145.77,73.4,8.05
259,Asău,0,52,46.43,26.4,64.4,4.7
260,Vilyuysk,100,84,63.76,121.62,40.89,5.57
261,Ōdachō-ōda,20,78,35.18,132.5,63.05,11.43
262,Vrangel',49,77,42.73,133.08,58.78,6.85
263,Kenai,1,76,60.55,-151.26,50.0,24.16
264,Henderson,1,14,36.04,-114.98,84.2,8.05
265,Oruzgan,0,33,32.83,66.0,53.13,2.71
266,Bontang,95,85,0.13,117.5,78.6,8.68
267,Comodoro Rivadavia,0,39,-45.87,-67.5,62.6,6.93
268,Narsaq,20,38,60.92,-46.05,41.0,3.36
269,Pisco,0,72,-13.7,-76.22,68.0,10.29
270,Hobyo,100,86,5.35,48.53,76.6,18.7
271,Kinablangan,73,76,7.69,126.55,80.02,3.76
272,Zhicheng,98,76,30.3,111.5,69.3,1.97
273,Bundaberg,0,58,-24.85,152.35,57.2,8.05
274,Abbeville,100,79,50.1,1.83,57.0,19.93
275,Mehamn,1,74,71.04,27.85,37.4,6.93
276,Jūybār,90,64,36.64,52.91,75.2,4.7
277,Sørland,0,71,67.67,12.69,50.0,18.34
278,Tiksi,100,89,71.69,128.87,41.52,5.73
279,Masasi,75,56,-10.72,38.8,78.28,9.01
280,Amarante do Maranhão,43,32,-5.57,-46.74,95.59,6.93
281,Saladoblanco,35,45,1.99,-76.04,79.72,4.32
282,Stromness,20,76,58.97,-3.3,48.2,5.82
283,Mayo,90,100,38.89,-76.51,73.0,3.36
284,Çermik,0,33,38.14,39.45,77.0,1.12
285,Debre Sīna,61,68,9.85,39.77,58.39,2.8
286,New Norfolk,11,72,-42.78,147.06,46.99,1.99
287,George Town,40,83,5.41,100.34,82.4,3.02
288,Udachny,90,77,66.42,112.4,33.8,8.95
289,Eganville,90,68,45.53,-77.1,71.6,10.29
290,Moa,17,64,20.66,-74.94,86.07,9.86
291,Cooma,0,86,-36.23,149.13,26.6,1.3
292,Aromashevo,5,90,56.86,68.64,49.21,6.64
293,Itoman,75,69,26.12,127.67,78.8,6.93
294,Diu,4,76,20.71,70.98,78.98,6.78
295,Kasempa,85,16,-13.46,25.83,86.43,3.18
296,Vestmanna,100,87,62.16,-7.17,46.4,17.22
297,Tiznit Province,0,42,29.58,-9.5,78.03,7.52
298,Leningradskiy,0,90,69.38,178.42,26.83,6.87
299,Cherskiy,100,80,68.75,161.3,36.3,17.85
300,Bafatá,8,62,12.17,-14.75,89.33,2.28
301,Porto Velho,40,55,-8.76,-63.9,89.6,5.82
302,Okato,93,84,-39.2,173.88,48.99,10.0
303,Tālcher,0,65,20.95,85.22,79.88,2.53
304,Lagoa,0,86,39.05,-27.98,71.19,7.38
305,Pevek,67,92,69.7,170.31,32.92,20.74
306,Constitución,0,57,-35.33,-72.42,59.49,10.54
307,Ostrovnoy,60,77,68.05,39.51,41.41,5.57
308,San Ramon,1,56,37.78,-121.98,73.0,4.74
309,Ekuvukeni,70,73,-28.47,30.16,57.18,8.75
310,Sennar,1,52,13.57,33.57,88.25,2.35
311,Port-Gentil,75,65,-0.72,8.78,82.4,14.99
312,Demidov,0,61,55.27,31.52,57.74,11.56
313,Araceli,99,74,10.55,119.99,83.84,6.24
314,Port Augusta,42,50,-32.5,137.77,57.2,8.05
315,Sibolga,100,72,1.74,98.78,77.34,1.54
316,Taber,20,46,49.82,-112.15,50.0,9.17
317,Wanning,100,86,18.8,110.4,81.05,2.08
318,Kérouané,52,67,9.27,-9.02,82.87,1.12
319,Azul,100,95,-36.78,-59.86,53.01,5.99
320,Isangel,20,94,-19.55,169.27,71.6,5.64
321,Ulety,0,82,51.36,112.48,36.43,9.55
322,Oktyabr'skiy,51,68,54.48,53.47,53.22,2.33
323,Coxim,0,19,-18.51,-54.76,104.99,12.95
324,Faanui,26,78,-16.48,-151.75,78.64,14.81
325,Southbridge,76,77,42.08,-72.03,73.99,1.01
326,Emerald,0,26,-23.53,148.17,60.8,5.82
327,Joaçaba,100,35,-27.18,-51.5,87.76,7.9
328,Sicuani,0,30,-14.27,-71.23,61.21,4.81
329,Soyo,75,69,-6.13,12.37,80.6,6.93
330,Montepuez,100,48,-13.13,39.0,80.71,7.43
331,Cody,90,65,44.53,-109.06,46.99,9.17
332,Kisumu,46,71,-0.1,34.76,74.62,2.37
333,Ambrolauri,5,77,42.52,43.16,69.8,1.12
334,Marawi,96,90,8.0,124.29,77.0,5.01
335,Moranbah,0,86,-22.0,148.05,63.59,8.66
336,Port Lincoln,52,80,-34.73,135.87,55.85,15.03
337,Codajás,99,47,-3.84,-62.06,91.72,1.83
338,Anloga,20,83,5.79,0.9,80.6,13.87
339,Jasper,75,65,37.2,-94.35,77.0,12.75
340,Saryg-Sep,0,86,51.5,95.6,34.2,3.0
341,Langsa,100,87,4.47,97.97,77.25,3.02
342,Kim,20,44,40.21,70.47,60.8,6.71
343,Sirte,1,76,31.21,16.59,79.45,21.56
344,Yumen,100,32,40.28,97.2,55.36,8.97
345,Shanghai,100,78,31.22,121.46,73.4,4.47
346,Oranjemund,0,66,-28.55,16.43,57.9,14.5
347,Itarema,28,54,-2.92,-39.92,86.25,19.37
348,Shingū,0,77,33.73,135.98,62.46,7.45
349,Saint Anthony,1,58,45.02,-93.22,59.0,14.99
350,Grindavik,75,93,63.84,-22.43,46.4,13.87
351,Oktyabr'skoye,75,82,43.06,44.74,64.4,8.95
352,Saint George,1,27,37.1,-113.58,75.2,4.7
353,Harrismith,0,28,-28.27,29.13,57.9,6.89
354,Mabaruma,79,79,8.2,-59.78,84.45,2.77
355,Marmato,68,53,5.48,-75.59,80.62,2.89
356,Zwedru,93,89,6.07,-8.13,76.89,3.76
357,Krasnosel'kup,100,93,65.7,82.47,50.2,20.51
358,Paamiut,42,77,61.99,-49.67,38.1,16.98
359,Ginir,79,78,7.13,40.7,63.09,4.99
360,La Unión,21,46,-5.4,-80.75,78.48,10.33
361,La Ciotat,95,56,43.17,5.6,61.0,7.0
362,Najrān,45,15,17.49,44.13,87.8,6.93
363,Kloulklubed,75,94,7.04,134.26,77.0,2.24
364,Puerto Nariño,40,66,-3.77,-70.38,89.6,2.24
365,Polis,40,61,35.04,32.43,80.6,9.17
366,Praia da Vitória,20,69,38.73,-27.07,77.0,8.66
367,Santarém,20,70,-2.44,-54.71,87.8,4.7
368,Mpika,23,17,-11.83,31.45,78.12,6.53
369,Sur,34,53,22.57,59.53,83.32,3.96
370,Beisfjord,0,42,68.38,17.6,48.2,18.34
371,Ust-Kuyga,21,95,70.02,135.6,32.72,3.65
372,Bushehr,0,62,28.97,50.84,89.6,4.7
373,Omsukchan,0,85,62.53,155.8,34.02,8.05
374,Predivinsk,100,85,57.07,93.44,43.83,3.78
375,Uray,28,91,60.12,64.78,52.05,7.05
376,Nānākuli,1,78,21.39,-158.15,77.0,6.08
377,Dwārka,40,71,22.24,68.97,82.18,9.31
378,Dārāb,0,17,28.75,54.54,78.01,2.95
379,Rafsanjān,61,16,30.41,55.99,76.39,6.13
380,Eston,20,53,51.15,-108.75,52.0,17.22
381,Kiryat Gat,0,72,31.61,34.76,84.0,13.94
382,Sawākin,0,64,19.11,37.33,88.25,9.24
383,Dolisie,74,64,-4.2,12.67,79.56,10.22
384,Muisne,75,78,0.6,-80.03,82.4,6.93
385,Tpig,100,79,41.78,47.59,51.44,0.85
386,Batagay,100,92,67.63,134.63,38.37,2.57
387,Andros Town,40,70,24.7,-77.77,86.0,4.7
388,São Félix do Xingu,4,31,-6.64,-51.99,100.04,2.73
389,Los Llanos de Aridane,20,61,28.66,-17.92,77.0,17.22
390,Cartagena,90,79,10.4,-75.51,84.2,14.99
391,Aykhal,90,87,66.0,111.5,33.8,8.95
392,Quzhou,40,88,28.96,118.87,64.45,0.36
393,Mindelo,75,66,16.89,-24.98,89.6,19.46
394,Shubarshi,0,41,48.59,57.19,53.51,6.73
395,Ayan,46,92,56.45,138.17,50.88,4.59
396,Aklavik,75,97,68.22,-135.01,32.0,2.24
397,Malinyi,56,40,-8.93,36.13,86.4,4.56
398,Antalaha,52,86,-14.9,50.28,71.74,6.04
399,Taywarah,0,53,33.35,64.42,42.26,4.54
400,Valparaíso,0,62,-33.04,-71.63,59.0,5.82
401,Plouzané,20,66,48.38,-4.62,57.2,12.75
402,Makakilo City,1,78,21.35,-158.09,77.0,6.17
403,Nerang,12,72,-27.98,153.33,57.0,6.51
404,Katobu,63,88,-4.94,122.53,73.94,3.69
405,Gornopravdinsk,44,95,60.05,69.9,51.06,6.06
406,Wajima,72,76,37.4,136.9,67.03,18.39
407,Luena,82,21,-11.78,19.92,86.74,2.33
408,Draguignan,60,39,43.53,6.47,64.4,19.46
409,Little Rock,20,69,34.75,-92.29,77.0,9.17
410,Coruripe,63,68,-10.13,-36.18,82.15,10.71
411,Pokhara,1,70,28.23,83.98,69.75,3.33
412,North Bend,1,93,43.41,-124.22,57.2,7.81
413,Charters Towers,2,91,-20.1,146.27,65.77,9.1
414,Shahrud,37,61,36.42,54.98,64.62,14.09
415,Matagami,90,100,49.75,-77.63,62.6,11.41
416,Tripoli,1,58,32.88,13.19,81.59,12.08
417,Mâncio Lima,20,56,-7.61,-72.9,93.2,3.36
418,Port Hardy,90,93,50.7,-127.42,51.8,23.04
419,Plettenberg Bay,18,64,-34.05,23.37,55.29,7.58
420,Ploemeur,0,51,47.73,-3.43,63.0,14.99
421,Sungai Raya,100,81,0.7,108.9,78.37,3.56
422,Vanimo,38,83,-2.67,141.3,78.62,3.76
423,Vélingara,19,63,13.15,-14.12,89.22,2.19
424,Champerico,75,70,14.3,-91.92,84.2,6.93
425,Mastic Beach,90,73,40.77,-72.85,75.99,4.7
426,Rio Verde de Mato Grosso,3,22,-18.92,-54.84,101.75,13.11
427,Fukuechō,0,75,32.69,128.84,70.3,27.31
428,Berlevåg,0,69,70.86,29.09,37.4,5.82
429,Beringovskiy,6,86,63.05,179.32,33.62,11.18
430,Wukari,81,79,7.85,9.78,80.17,6.78
431,Penicuik,80,62,55.83,-3.22,53.6,5.82
432,Naryan-Mar,15,80,67.67,53.09,40.08,6.85
433,Inta,48,78,66.03,60.17,42.76,8.46
434,Sumbe,75,79,-11.21,13.84,73.76,10.51
435,Romanovo,100,58,52.62,81.23,46.92,5.75
436,Dubbo,0,93,-32.25,148.62,39.2,10.29
437,Lashma,90,61,54.93,41.14,53.02,7.63
438,Olafsvik,100,80,64.89,-23.71,45.79,7.29
439,Kifrī,0,17,34.7,44.97,88.05,12.17
440,Belmonte,40,61,-15.86,-38.88,80.6,16.11
441,Oussouye,20,74,12.48,-16.55,91.4,6.93
442,Puerto Asís,40,62,0.51,-76.5,87.8,2.24
443,Broome,90,88,42.25,-75.83,73.0,9.17
444,Ankang,100,79,32.68,109.02,66.34,1.19
445,Mount Darwin,37,16,-16.77,31.58,87.12,5.68
446,Sisimiut,99,83,66.94,-53.67,35.6,11.7
447,Northam,0,77,51.03,-4.22,59.0,8.99
448,Neuquén,0,36,-38.95,-68.06,62.6,5.82
449,Rybinsk,3,69,58.04,38.84,52.57,6.85
450,Stornoway,20,66,58.21,-6.39,51.8,16.11
451,Camargo,0,26,27.67,-105.17,82.92,11.14
452,Macheng,7,81,31.18,115.03,66.83,2.08
453,Bariloche,15,49,-41.15,-71.31,48.2,13.87
454,Tomatlán,1,68,19.93,-105.25,87.19,1.36
455,Tura,100,97,25.52,90.22,73.9,3.0
456,Honiara,75,94,-9.43,159.95,75.2,4.7
457,Bereket,90,24,39.24,55.52,65.19,11.72
458,Namatanai,99,81,-3.67,152.43,79.52,3.87
459,Colac,0,93,-38.33,143.58,39.0,0.98
460,Martapura,90,100,-3.42,114.85,73.4,4.7
461,Río Gallegos,100,34,-51.62,-69.22,53.6,13.87
462,Kirakira,100,82,-10.45,161.92,79.39,12.64
463,Airai,74,77,-8.93,125.41,60.42,3.04
464,Playa Vicente,69,75,17.83,-95.82,82.89,3.67
465,Poplar Bluff,90,78,36.76,-90.39,71.6,5.82
466,Zhangye,97,41,38.93,100.45,58.46,8.03
467,Viramgam,75,79,23.12,72.05,84.2,4.7
468,Fairbanks,1,93,64.84,-147.72,37.99,8.05
469,Pangai,10,75,-19.8,-174.35,74.75,14.09
470,Bengkulu,67,85,-3.8,102.27,76.39,5.1
471,Fort Frances,90,71,48.6,-93.4,55.4,11.41
472,Seremban,20,88,2.73,101.94,78.8,2.17
473,Kruisfontein,1,60,-34.0,24.73,57.0,5.01
474,Labuhan,64,76,-6.88,112.21,79.47,12.01
475,Krabi,75,100,8.07,98.91,75.2,3.36
476,Avera,90,63,33.19,-82.53,75.99,5.82
477,Barra do Corda,44,27,-5.5,-45.25,100.65,6.22
478,Newcastle,90,76,-32.93,151.78,55.99,2.24
479,Broken Hill,43,57,-31.95,141.43,50.0,8.05
480,Kita,0,48,13.03,-9.49,90.91,3.85
481,Diphu,86,97,25.83,93.43,75.0,2.15
482,Chingirlau,0,44,51.09,54.08,54.77,5.17
483,Maningrida,5,88,-12.07,134.27,76.5,6.87
484,Stadthagen,75,66,52.32,9.2,55.4,3.36
485,Helong,0,80,42.54,129.0,52.11,4.61
486,Mbinga,5,44,-10.93,35.02,77.0,13.87
487,Raudeberg,0,78,61.99,5.14,55.99,3.83
488,Lata,0,54,40.16,-8.33,77.0,11.32
489,Puerto Madryn,0,31,-42.77,-65.04,61.5,7.67
490,Batagay-Alyta,100,95,67.8,130.41,32.29,1.05
491,Riyadh,0,17,24.69,46.72,95.0,4.7
492,Nouakchott,20,70,18.09,-15.98,89.6,14.99
493,Rio Grande,100,90,-32.03,-52.1,68.0,3.0
494,Fortuna,1,100,40.6,-124.16,59.0,4.7
495,Okhotsk,84,87,59.38,143.3,50.36,14.92
496,Bandarbeyla,0,78,9.49,50.81,77.58,27.58
497,Machico,40,73,32.7,-16.77,71.6,9.17
498,Djibouti,1,70,11.5,42.5,89.6,9.17
499,Malé,75,79,4.17,73.51,84.2,3.36
500,Tongliao,0,63,43.61,122.27,61.86,8.77
501,Mackay,40,93,-21.15,149.2,64.4,6.93
502,São João dos Patos,18,24,-6.5,-43.7,98.83,7.92
503,Bereda,67,61,43.27,-7.54,63.0,11.99
504,Manado,20,88,1.49,124.85,77.0,3.44
505,Half Moon Bay,1,77,37.46,-122.43,69.8,4.0
506,Pacific Grove,1,63,36.62,-121.92,66.0,9.17
507,Skibbereen,75,87,51.55,-9.27,57.2,8.05
508,Netrakona,100,90,24.88,90.72,79.63,4.63
509,Calama,0,11,-22.47,-68.93,68.0,11.41
510,Diego de Almagro,0,18,-26.37,-70.05,74.16,8.61
511,Erenhot,13,49,43.65,111.98,60.89,13.18
512,Musoma,20,69,-1.5,33.8,78.8,11.41
513,Marathon,1,100,44.9,-89.77,57.99,4.7
514,Ust'-Ordynskiy,75,100,52.8,104.75,37.4,2.24
515,Vila Franca do Campo,75,94,37.72,-25.43,71.6,9.17
516,Nokaneng,0,11,-19.67,22.27,91.24,3.15
517,Saldanha,53,48,-33.01,17.94,60.8,10.29
518,Laguna,1,40,38.42,-121.42,73.99,9.17
519,Strezhevoy,78,87,60.73,77.59,51.8,6.71
520,Ende,33,76,-8.84,121.66,77.25,1.74
521,Bāneh,0,32,36.0,45.89,62.73,6.44
522,Arrondissement de Saint-Gaudens,90,58,43.08,0.67,57.2,16.11
523,Nimāparha,40,89,20.07,86.02,84.2,5.82
524,Olinda,40,66,-8.01,-34.86,84.2,14.99
525,Kynšperk nad Ohří,70,80,50.12,12.53,51.01,4.34
526,Guerrero Negro,0,69,27.98,-114.06,73.22,8.72
527,Khovd,100,57,48.01,91.64,42.3,3.11
528,Innisfail,69,86,-17.53,146.03,71.22,3.89
529,Chernyshevskiy,100,90,63.01,112.47,39.9,10.29
530,Palimé,96,88,6.9,0.63,75.69,1.86
531,Nueva Guinea,42,73,11.69,-84.46,83.41,7.29
532,Okha,1,87,53.57,142.95,45.23,11.68
533,Cururupu,81,54,-1.83,-44.87,88.57,7.94
534,Longyearbyen,90,86,78.22,15.64,33.8,12.75
535,The Valley,75,88,18.22,-63.06,82.4,11.41
536,Clovis,90,64,36.83,-119.7,72.0,1.16
537,San Roque,75,60,36.21,-5.38,73.4,13.87
538,Lompoc,40,72,34.64,-120.46,66.2,2.62
539,Forsytheganj,100,68,52.63,29.73,60.71,12.06
540,Lorengau,38,80,-2.02,147.27,81.07,7.49
541,Maniitsoq,13,80,65.42,-52.9,36.41,8.7
542,Lichuan,100,93,30.3,108.85,53.67,3.4
543,Thunder Bay,20,77,48.4,-89.32,62.6,10.29
544,Cedar Lake,75,69,41.36,-87.44,75.0,8.05
545,Lhokseumawe,100,84,5.18,97.15,79.07,8.61
546,Nawalgarh,0,29,27.85,75.27,82.83,2.59
547,Grong,97,71,64.47,12.31,55.4,20.8
548,Fallbrook,90,93,33.38,-117.25,68.0,1.5
549,San Jose,40,60,37.34,-121.89,73.0,2.24
550,Mahon,20,45,39.89,4.27,64.4,11.41
551,Ambon City,40,100,-3.7,128.18,75.2,6.93
552,Arbuzynka,0,41,47.91,31.32,67.33,8.95
553,Comandău,0,54,45.77,26.27,60.01,8.99
554,Yuzhno-Kurilsk,76,87,44.03,145.86,55.89,27.63
555,Stavern,90,87,59.0,10.03,57.99,14.99
556,Touros,40,55,-5.2,-35.46,87.8,13.87
557,Preobrazheniye,1,81,42.9,133.91,52.38,5.53
558,Ushtobe,0,51,45.25,77.98,48.33,14.07
559,Xiongzhou,97,90,25.12,114.3,64.67,1.5
560,Padang,100,67,-0.95,100.35,79.05,3.18
561,Arman',8,89,59.7,150.17,40.95,0.89
562,Salina Cruz,71,66,16.17,-95.2,84.83,4.52
563,Ust-Maya,100,79,60.42,134.53,53.26,7.34
564,Abilene,1,58,32.45,-99.73,84.2,17.22
565,Carutapera,70,59,-1.2,-46.02,86.85,11.05
566,Bairiki Village,40,78,1.33,172.98,80.6,9.17
567,Bang Saphan,100,91,11.21,99.51,76.68,5.46
568,Lonār,90,89,19.98,76.53,72.61,5.19
569,Tanout,11,13,14.97,8.89,98.69,6.55
570,Ola,22,92,59.58,151.28,41.94,7.36
571,Øksfjord,0,56,70.24,22.35,44.6,18.34
572,Port Macquarie,85,80,-31.43,152.92,50.0,7.4
573,Bassar,75,78,9.25,0.78,78.8,3.36
574,Sānchor,0,55,24.76,71.77,83.44,6.98
575,Hailey,5,49,43.52,-114.32,46.4,10.29
576,Caxito,20,69,-8.58,13.66,77.0,9.17
577,Karasburg,0,26,-28.02,18.75,60.67,15.64
578,Podyuga,0,90,61.09,40.86,53.49,4.61
579,Te Anau,73,91,-45.42,167.72,33.1,7.49
580,Flinders,94,75,-34.58,150.86,48.99,1.01
581,Erbaa,40,44,40.67,36.57,78.8,11.41
582,Taoudenni,0,6,22.68,-3.98,110.12,4.41
583,Poputnaya,16,4,44.51,41.44,69.01,17.0
584,Havøysund,0,68,71.0,24.66,42.8,18.34
585,Dunedin,0,57,-45.87,170.5,41.0,4.0
586,Teahupoo,20,83,-17.83,-149.27,73.4,2.24
